{
  "region": "niederoesterreich",
  "site": "oetscher",
  "name": "Ötscher",
  "coordinates": {
    "lat": 47.85861,
    "lon": 15.17944
  },
  "talHeight": 810,
  "operator": {
    "name": "Ötscher Bergbahnen",
    "url": "https://www.oetscher.at",
    "phone": "+43 7480 5354"
  },
  "access": {
    "car": true,
    "cableCar": true,
    "hikeAndFly": true,
    "publicTransport": false,
    "parking": "Talstation Lackenhof / Weitental"
  },
  "airspaces": [],
  "flightCharacteristics": {
    "soaring": true,
    "thermal": true,
    "crossCountry": true
  },
  "windDirections": [
    "N",
    "W",
    "NW"
  ],
  "webcam": null,
  "approachDescription": "A1 Ybbs, majd B25 Gaming, Lackenhof. Talstation a falu mögött.",
  "description": "Több start a gerinc mentén. Jó NW soaring. XC lehetőségek Mariazell és Hochkar felé. Landing korlátozott.",
  "siteRatings": {
    "overallRating": null,
    "thermalRating": null
  },
  "startpunkte": [
    {
      "name": "Hüttenkogel",
      "coordinates": {
        "lat": 47.85611,
        "lon": 15.18306
      },
      "startHeight": 1500,
      "heightDifference": 690,
      "launchDirections": [
        "NW"
      ],
      "difficulty": "leicht",
      "windSensitivity": "NW Gegenwind",
      "description": "Gipfelwiesen nahe Lift."
    },
    {
      "name": "Weisses Mäuerl",
      "coordinates": {
        "lat": 47.85722,
        "lon": 15.19167
      },
      "startHeight": 1786,
      "heightDifference": 976,
      "launchDirections": [
        "W",
        "NW"
      ],
      "difficulty": "mittel",
      "windSensitivity": "Windgradient möglich",
      "description": "Gratstart."
    },
    {
      "name": "Großer Ötscher Gipfel",
      "coordinates": {
        "lat": 47.86194,
        "lon": 15.20194
      },
      "startHeight": 1895,
      "heightDifference": 1085,
      "launchDirections": [
        "N",
        "W",
        "NW"
      ],
      "difficulty": "leicht",
      "windSensitivity": "Hochalpin",
      "description": "Gipfelstart."
    },
    {
      "name": "Kleiner Ötscher",
      "coordinates": {
        "lat": 47.85611,
        "lon": 15.15389
      },
      "startHeight": 1340,
      "heightDifference": 530,
      "launchDirections": [],
      "difficulty": "leicht",
      "windSensitivity": "",
      "description": "Derzeit eingeschränkt nutzbar."
    }
  ],
  "landeplaetze": [
    {
      "name": "Ötscherwiese",
      "coordinates": {
        "lat": 47.87361,
        "lon": 15.17222
      },
      "difficulty": null,
      "windSensitivity": "Talwind",
      "description": "Hauptlandeplatz mit Windsack."
    },
    {
      "name": "Weitental",
      "coordinates": {
        "lat": 47.86972,
        "lon": 15.16139
      },
      "difficulty": "mittel",
      "windSensitivity": "Talwind",
      "description": "Alternativer Landeplatz."
    }
  ]
}
